{"id":"9011114001200000","line":"12","agency":"WAAB","path":[[59.43189,18.58616],[59.43189,18.58616],[59.43232,18.58513],[59.4357,18.58418],[59.43943,18.58385],[59.44097,18.58575],[59.44184,18.58695],[59.44389,18.58893],[59.44435,18.58796],[59.44734,18.58465],[59.44852,18.58167],[59.44869,18.5783],[59.44856,18.58155],[59.44842,18.5851],[59.44852,18.58721],[59.44972,18.59098],[59.45237,18.59846],[59.45452,18.60026],[59.45557,18.59907],[59.45547,18.60058],[59.45535,18.60572],[59.46014,18.61799],[59.46439,18.62974],[59.46545,18.63189],[59.4667,18.63289],[59.46106,18.63106],[59.45486,18.63447],[59.45818,18.65854],[59.46433,18.67861],[59.46753,18.68316],[59.47382,18.69032],[59.4809,18.70898],[59.48613,18.70354],[59.491,18.65205],[59.49412,18.64523],[59.49831,18.6429],[59.50231,18.64059],[59.50382,18.63971],[59.50473,18.63796]],"stops":[{"id":"9022050013020001","name":"Örsö","lat":59.43189,"lng":18.58616,"agency":"WAAB"},{"id":"9022050013022001","name":"Strömsholm","lat":59.44389,"lng":18.58893,"agency":"WAAB"},{"id":"9022050013023001","name":"Stensvik","lat":59.44869,"lng":18.5783,"agency":"WAAB"},{"id":"9022050013024001","name":"Hummelmora","lat":59.45557,"lng":18.59907,"agency":"WAAB"},{"id":"9022050013025001","name":"Edö","lat":59.4667,"lng":18.63289,"agency":"WAAB"},{"id":"9022050013032001","name":"Åsättra brygga","lat":59.50473,"lng":18.63796,"agency":"WAAB"}]}