{"id":"9011001008000000-80X","line":"80X","agency":"SL","path":[[59.33206,18.07652],[59.33195,18.07659],[59.32626,18.09042],[59.31838,18.09709],[59.31845,18.1195],[59.31949,18.13477],[59.31971,18.14451],[59.32089,18.15138],[59.32091,18.1514],[59.32091,18.15142],[59.31837,18.16003],[59.31837,18.16005],[59.31813,18.16003],[59.31873,18.15877],[59.32551,18.15968],[59.32827,18.15945],[59.33075,18.15864],[59.33302,18.15678],[59.33534,18.15555],[59.3431,18.15248],[59.34319,18.15241],[59.34556,18.13146],[59.3455,18.13164],[59.34795,18.1343],[59.35796,18.10937],[59.35831,18.10629],[59.35832,18.10634]],"stops":[{"id":"9022050012930001","name":"Nybroplan","lat":59.33206,"lng":18.07652,"agency":"SL"},{"id":"9022050012007001","name":"Blockhusudden","lat":59.32091,"lng":18.1514,"agency":"SL"},{"id":"9022050012376001","name":"Nacka strand","lat":59.31837,"lng":18.16005,"agency":"SL"},{"id":"9022050012003001","name":"Lidingö/Dalénum","lat":59.34319,"lng":18.15241,"agency":"SL"},{"id":"9022050012099001","name":"Frihamnen","lat":59.34556,"lng":18.13146,"agency":"SL"},{"id":"9022050013123001","name":"Ropsten","lat":59.35832,"lng":18.10634,"agency":"SL"}]}