{"id":"9011114002200000","line":"22","agency":"WAAB","path":[[58.90079,17.95282],[58.90029,17.95365],[58.89956,17.95684],[58.89864,17.95878],[58.90085,17.96156],[58.9049,17.96376],[58.90748,17.96707],[58.91016,17.97109],[58.9124,17.98277],[58.91287,17.98612],[58.88533,18.0773],[58.88506,18.10283],[58.88508,18.10399],[58.8847,18.1048],[58.88304,18.10854],[58.88122,18.1106],[58.88229,18.10902],[58.88482,18.1094],[58.89103,18.1105],[58.89785,18.12687],[58.90026,18.14206],[58.90197,18.14639],[58.90165,18.14743],[58.90193,18.14723],[58.90452,18.15036],[58.90513,18.14983],[58.9049,18.15054],[58.90708,18.15662],[58.90785,18.16119],[58.90643,18.16505],[58.91748,18.17767],[58.91881,18.1791],[58.91929,18.17793],[58.91928,18.17876],[58.92021,18.18439],[58.9194,18.1876],[58.92009,18.1905],[58.91998,18.1918]],"stops":[{"id":"9022050012978001","name":"Nynäshamn","lat":58.90079,"lng":17.95282,"agency":"WAAB"},{"id":"9022050012909001","name":"Nåttarö","lat":58.88122,"lng":18.1106,"agency":"WAAB"},{"id":"9022050012899001","name":"Aspö","lat":58.90165,"lng":18.14743,"agency":"WAAB"},{"id":"9022050012900001","name":"Norrö","lat":58.90513,"lng":18.14983,"agency":"WAAB"},{"id":"9022050012901001","name":"Rånö","lat":58.91929,"lng":18.17794,"agency":"WAAB"},{"id":"9022050012902001","name":"Ålö","lat":58.91998,"lng":18.1918,"agency":"WAAB"}]}