{"id":"9011114002000000","line":"20","agency":"WAAB","path":[[59.12957,18.40522],[59.12524,18.40934],[59.12627,18.4105],[59.12603,18.417],[59.12548,18.42021],[59.12488,18.42173],[59.12449,18.42314],[59.12302,18.42584],[59.11887,18.41978],[59.11566,18.41452],[59.11713,18.41159],[59.11405,18.41287],[59.11365,18.41289],[59.11425,18.41047],[59.11246,18.39924],[59.1132,18.39298],[59.11329,18.39153],[59.10969,18.39767],[59.10649,18.39822],[59.10392,18.39885],[59.10442,18.39761],[59.10509,18.39009],[59.09742,18.36362],[59.09319,18.36233],[59.09178,18.39852],[59.0913,18.41134],[59.09112,18.41501],[59.08914,18.41541],[59.09079,18.41428],[59.0913,18.41134],[59.09178,18.39852],[59.08323,18.35879],[59.06133,18.33413],[59.05192,18.33751],[59.04957,18.33981],[59.04909,18.34146]],"stops":[{"id":"9022050012870001","name":"Dalarö","lat":59.12957,"lng":18.40522,"agency":"WAAB"},{"id":"9022050013062001","name":"Jutholmen","lat":59.12524,"lng":18.40934,"agency":"WAAB"},{"id":"9022050013063001","name":"Aspö","lat":59.11713,"lng":18.41159,"agency":"WAAB"},{"id":"9022050013064001","name":"Stora Segholmen","lat":59.11365,"lng":18.41289,"agency":"WAAB"},{"id":"9022050012871001","name":"Dalarö skans","lat":59.11329,"lng":18.39153,"agency":"WAAB"},{"id":"9022050012896001","name":"Fåglarö","lat":59.10392,"lng":18.39885,"agency":"WAAB"},{"id":"9022050012904001","name":"Hässelmara","lat":59.08914,"lng":18.41541,"agency":"WAAB"},{"id":"9022050012906001","name":"Björkösund","lat":59.04909,"lng":18.34146,"agency":"WAAB"}]}