{"id":"9011001000700000","line":"7","agency":"SL","path":[[59.32264,18.11139],[59.32263,18.11139],[59.32264,18.11152],[59.32264,18.11166],[59.32266,18.11184],[59.32268,18.11197],[59.32271,18.1121],[59.32273,18.11217],[59.32277,18.11227],[59.3228,18.11237],[59.32283,18.11244],[59.32288,18.11259],[59.32294,18.11269],[59.32299,18.11277],[59.32314,18.11294],[59.3232,18.113],[59.32326,18.11301],[59.32334,18.11301],[59.32338,18.11301],[59.32342,18.11299],[59.32348,18.11297],[59.32351,18.11296],[59.32356,18.11292],[59.32359,18.11282],[59.32364,18.11269],[59.32368,18.11257],[59.32378,18.11223],[59.32402,18.11144],[59.32407,18.11117],[59.32408,18.11098],[59.32408,18.11078],[59.32407,18.11063],[59.32403,18.11053],[59.32402,18.11053],[59.32389,18.11034],[59.32366,18.11015],[59.32355,18.11003],[59.32344,18.10986],[59.3232,18.10917],[59.32318,18.10855],[59.32315,18.10794],[59.32312,18.10741],[59.32311,18.10706],[59.32314,18.10626],[59.32323,18.10529],[59.32324,18.10521],[59.32335,18.10426],[59.3234,18.10383],[59.32348,18.10333],[59.32371,18.10202],[59.32388,18.10102],[59.3239,18.10091],[59.32416,18.09945],[59.32416,18.09949],[59.32415,18.09949],[59.32434,18.09862],[59.32466,18.09775],[59.32493,18.09739],[59.32508,18.09716],[59.32539,18.09685],[59.32543,18.09682],[59.32588,18.09641],[59.32605,18.09629],[59.32617,18.09623],[59.3263,18.09615],[59.32645,18.09608],[59.32658,18.09602],[59.32674,18.09601],[59.32689,18.09604],[59.32708,18.09613],[59.32753,18.09638],[59.32766,18.09644],[59.32776,18.09651],[59.32786,18.09654],[59.32798,18.09657],[59.32807,18.09658],[59.32816,18.09656],[59.32827,18.0965],[59.32838,18.09638],[59.32852,18.09619],[59.32894,18.09574],[59.3293,18.09532],[59.3295,18.0951],[59.32994,18.09457],[59.33008,18.0944],[59.33031,18.09422],[59.33053,18.09417],[59.33075,18.09409],[59.33121,18.09385],[59.33129,18.0938],[59.33141,18.09373],[59.33149,18.09367],[59.33157,18.09361],[59.33179,18.09336],[59.33186,18.09327],[59.33188,18.09316],[59.33188,18.09299],[59.33187,18.0921],[59.33187,18.09205],[59.33184,18.09102],[59.33181,18.08989],[59.33174,18.08669],[59.3317,18.08475],[59.33168,18.08398],[59.33168,18.08379],[59.33167,18.08379],[59.33168,18.08381],[59.33162,18.08215],[59.3316,18.08125],[59.33163,18.08079],[59.33177,18.08001],[59.33209,18.07885],[59.33241,18.07764],[59.33251,18.07737],[59.33263,18.07702],[59.33284,18.07645],[59.33287,18.07631],[59.33284,18.07624],[59.33288,18.0763],[59.33288,18.07629],[59.33295,18.07597],[59.33308,18.07571],[59.33309,18.07571],[59.33308,18.07503],[59.33307,18.0738],[59.33303,18.07318],[59.333,18.0729],[59.33294,18.07232],[59.33285,18.07177],[59.3328,18.0714],[59.33273,18.07017],[59.33279,18.07018],[59.3322,18.06208]],"stops":[{"id":"9022050010779001","name":"Waldemarsudde","lat":59.32264,"lng":18.11139,"agency":"SL"},{"id":"9022050009885001","name":"Bellmansro","lat":59.32401,"lng":18.11055,"agency":"SL"},{"id":"9022050009884001","name":"Djurgårdsskolan","lat":59.32323,"lng":18.10521,"agency":"SL"},{"id":"9022050009883001","name":"Skansen","lat":59.32416,"lng":18.09949,"agency":"SL"},{"id":"9022050009882001","name":"Liljevalchs/Gröna Lund","lat":59.32547,"lng":18.09699,"agency":"SL"},{"id":"9022050009881001","name":"Nordiska museet/Vasamuseet","lat":59.32954,"lng":18.09527,"agency":"SL"},{"id":"9022050009880001","name":"Djurgårdsbron","lat":59.3319,"lng":18.09205,"agency":"SL"},{"id":"9022050011829001","name":"Styrmansgatan","lat":59.33167,"lng":18.08379,"agency":"SL"},{"id":"9022050011882001","name":"Nybroplan","lat":59.33284,"lng":18.07624,"agency":"SL"},{"id":"9022050011881001","name":"Kungsträdgården","lat":59.33279,"lng":18.07018,"agency":"SL"},{"id":"9022050012275002","name":"T-Centralen","lat":59.3322,"lng":18.06208,"agency":"SL"}]}