{"id":"9011001041700000","line":"417","agency":"SL","path":[[59.347,18.2438],[59.34702,18.24381],[59.34699,18.24398],[59.34674,18.24422],[59.34615,18.24477],[59.34569,18.2452],[59.34552,18.24539],[59.34544,18.24553],[59.34532,18.24577],[59.34508,18.24635],[59.34488,18.24686],[59.34482,18.247],[59.34463,18.24743],[59.34457,18.24757],[59.3444,18.24803],[59.34423,18.24844],[59.3441,18.2488],[59.34406,18.24892],[59.34388,18.24937],[59.34375,18.24975],[59.34363,18.25012],[59.34351,18.25062],[59.34347,18.25083],[59.34344,18.251],[59.34341,18.25112],[59.34334,18.25145],[59.34327,18.25178],[59.34313,18.25228],[59.34295,18.25293],[59.34251,18.25444],[59.34238,18.25482],[59.34217,18.25535],[59.34205,18.25563],[59.34202,18.25568],[59.34192,18.25599],[59.34184,18.25628],[59.3418,18.25644],[59.3417,18.25691],[59.34161,18.25729],[59.34153,18.25749],[59.34137,18.2578],[59.34125,18.25803],[59.3411,18.25832],[59.34108,18.25835],[59.34091,18.25865],[59.34064,18.25916],[59.34054,18.25934],[59.34024,18.25989],[59.34005,18.26022],[59.33989,18.26052],[59.33972,18.26083],[59.3396,18.26109],[59.33949,18.26138],[59.33948,18.2614],[59.33942,18.26159],[59.3394,18.26166],[59.33935,18.26186],[59.33933,18.26195],[59.33903,18.26336],[59.33895,18.26369],[59.33888,18.26397],[59.33877,18.26429],[59.33862,18.26472],[59.33812,18.2661],[59.33785,18.26677],[59.33772,18.26708],[59.33771,18.26711],[59.33763,18.26722],[59.33754,18.26736],[59.33741,18.26747],[59.33725,18.26757],[59.33698,18.26764],[59.33684,18.26765],[59.33646,18.26769],[59.33629,18.2677],[59.33596,18.26775],[59.33562,18.26772],[59.33548,18.26768],[59.33532,18.26759],[59.33522,18.2675],[59.33508,18.26735],[59.33497,18.2672],[59.33482,18.26693],[59.33468,18.26661],[59.3346,18.26636],[59.33448,18.26592],[59.33439,18.26556],[59.33432,18.26529],[59.33425,18.26509],[59.33414,18.26484],[59.33402,18.26455],[59.33393,18.2644],[59.33391,18.26435],[59.33384,18.26421],[59.33366,18.26445],[59.33346,18.26465],[59.33322,18.26481],[59.33318,18.26482],[59.33276,18.26495],[59.33272,18.26496],[59.33262,18.26498],[59.3324,18.26504],[59.33234,18.26507],[59.33223,18.26514],[59.33195,18.26533],[59.33188,18.26538],[59.3316,18.26568],[59.33132,18.26605],[59.33112,18.26547],[59.3309,18.26498],[59.33087,18.26492],[59.33074,18.26467],[59.33053,18.26433],[59.33037,18.26411],[59.33026,18.26396],[59.32992,18.26357],[59.3298,18.26347],[59.32955,18.26325],[59.32931,18.26303],[59.32904,18.26283],[59.32875,18.2626],[59.32735,18.26145],[59.32686,18.26108],[59.32686,18.26108],[59.32664,18.26089],[59.32655,18.26057],[59.32641,18.26051],[59.32619,18.26048],[59.32511,18.25962],[59.32507,18.25944],[59.32501,18.25938],[59.32495,18.25939],[59.32495,18.25911],[59.32513,18.25832],[59.32515,18.25834]],"stops":[{"id":"9022050009521001","name":"Hasseludden","lat":59.347,"lng":18.2438,"agency":"SL"},{"id":"9022050007067002","name":"Hamndalsvägen","lat":59.34457,"lng":18.24748,"agency":"SL"},{"id":"9022050011221001","name":"Kvarnbergsvägen","lat":59.34334,"lng":18.25107,"agency":"SL"},{"id":"9022050007066002","name":"Kvarnsjön","lat":59.34104,"lng":18.25825,"agency":"SL"},{"id":"9022050007065002","name":"Myrsjövägen","lat":59.33945,"lng":18.26137,"agency":"SL"},{"id":"9022050007064002","name":"Nygärde","lat":59.33645,"lng":18.26762,"agency":"SL"},{"id":"9022050009523002","name":"Korset","lat":59.33271,"lng":18.26482,"agency":"SL"},{"id":"9022050009532002","name":"Sarvträsk","lat":59.32906,"lng":18.26275,"agency":"SL"},{"id":"9022050000730003","name":"Orminge centrum","lat":59.32515,"lng":18.25834,"agency":"SL"}]}